City_ID,City,Country,Lat,Lng,Max Temp,Humidity,Cloudiness,Wind Speed,Current Description,Date
0,Dakar,SN,14.6937,-17.4441,77.13,50,0,13.8,clear sky,2022-11-27 07:51:07
1,Punta Arenas,CL,-53.15,-70.9167,42.91,70,40,3.44,scattered clouds,2022-11-27 07:51:08
2,Mahebourg,MU,-20.4081,57.7,80.89,61,40,13.8,scattered clouds,2022-11-27 07:47:07
3,Volgorechensk,RU,57.4393,41.1555,15.67,95,95,6.11,overcast clouds,2022-11-27 07:51:08
4,Puerto Ayora,EC,-0.7393,-90.3518,66.54,98,95,6.38,overcast clouds,2022-11-27 07:51:09
5,Hilo,US,19.7297,-155.09,69.53,90,20,3.44,few clouds,2022-11-27 07:51:09
6,Dingle,PH,10.9995,122.6711,82.17,74,12,10.25,few clouds,2022-11-27 07:51:10
7,Inuvik,CA,68.3499,-133.7218,-3.14,80,100,5.75,light snow,2022-11-27 07:51:10
8,Rikitea,PF,-23.1203,-134.9692,74.43,80,73,6.06,broken clouds,2022-11-27 07:51:11
9,Port Hardy,CA,50.6996,-127.4199,37.58,93,40,10.36,scattered clouds,2022-11-27 07:51:11
10,Busselton,AU,-33.65,115.3333,71.94,44,0,13.42,clear sky,2022-11-27 07:50:17
11,Jamestown,US,42.097,-79.2353,45.99,64,0,6.91,clear sky,2022-11-27 07:47:08
12,Quelimane,MZ,-17.8786,36.8883,84.15,74,40,11.5,scattered clouds,2022-11-27 07:51:12
13,Arraial Do Cabo,BR,-22.9661,-42.0278,72.63,94,100,25.1,overcast clouds,2022-11-27 07:51:13
14,Hami,CN,42.8,93.45,23.94,15,100,19.06,overcast clouds,2022-11-27 07:50:33
15,Azul,AR,-36.777,-59.8585,58.17,88,4,6.91,clear sky,2022-11-27 07:51:14
16,Severo-Kurilsk,RU,50.6789,156.125,36.23,88,100,9.26,overcast clouds,2022-11-27 07:51:14
17,Lianzhou,CN,24.7811,112.3825,70.52,99,100,3.6,overcast clouds,2022-11-27 07:51:15
18,Hobart,AU,-42.8794,147.3294,56.05,54,75,13.8,broken clouds,2022-11-27 07:50:04
19,Kahului,US,20.8947,-156.47,70.84,91,100,10.36,mist,2022-11-27 07:51:15
20,Rawson,AR,-43.3002,-65.1023,56.1,86,100,10.42,overcast clouds,2022-11-27 07:46:37
21,Umm Bab,QA,25.2142,50.8072,80.28,39,8,7.54,clear sky,2022-11-27 07:51:16
22,Lasa,IT,46.6166,10.7002,32.88,51,12,3.58,few clouds,2022-11-27 07:46:57
23,Khatanga,RU,71.9667,102.5,4.26,95,100,10.25,overcast clouds,2022-11-27 07:47:18
24,Ostersund,SE,63.1792,14.6357,34.61,100,100,12.66,overcast clouds,2022-11-27 07:47:43
25,Pula,HR,44.8683,13.8481,51.57,57,0,18.41,clear sky,2022-11-27 07:51:17
26,Butaritari,KI,3.0707,172.7902,81.43,76,100,9.86,overcast clouds,2022-11-27 07:51:18
27,Banjar,ID,-8.19,114.9675,81.28,87,83,3.44,light rain,2022-11-27 07:51:18
28,San Cristobal,VE,7.7669,-72.225,64.72,98,100,1.81,overcast clouds,2022-11-27 07:51:19
29,Cape Town,ZA,-33.9258,18.4232,73.11,59,0,19.57,clear sky,2022-11-27 07:51:19
30,Coquimbo,CL,-29.9533,-71.3436,60.53,88,100,3.44,overcast clouds,2022-11-27 07:48:13
31,Kaitangata,NZ,-46.2817,169.8464,48.25,76,99,2.64,overcast clouds,2022-11-27 07:51:20
32,Ushuaia,AR,-54.8,-68.3,42.46,81,0,6.91,clear sky,2022-11-27 07:51:21
33,Lebu,CL,-37.6167,-73.65,55.87,85,6,12.03,clear sky,2022-11-27 07:51:21
34,Vanderhoof,CA,54.0166,-124.0198,27.45,67,13,11.7,few clouds,2022-11-27 07:51:22
35,Ponta Do Sol,PT,32.6667,-17.1,66.83,74,95,4.25,overcast clouds,2022-11-27 07:51:22
36,Medicine Hat,CA,50.0501,-110.6683,36.21,65,100,18.41,overcast clouds,2022-11-27 07:51:01
37,Katsuura,JP,35.1333,140.3,59.2,66,89,14.85,overcast clouds,2022-11-27 07:50:27
38,Prescott,US,34.54,-112.4685,39.11,38,0,4.61,clear sky,2022-11-27 07:51:23
39,Phan Thiet,VN,10.9333,108.1,82.87,75,84,12.68,broken clouds,2022-11-27 07:51:24
40,Vanimo,PG,-2.6741,141.3028,82.36,75,100,5.53,overcast clouds,2022-11-27 07:51:24
41,Bredasdorp,ZA,-34.5322,20.0403,71.11,49,27,14.27,scattered clouds,2022-11-27 07:51:25
42,Kautokeino,NO,69.0125,23.0412,27.79,93,96,18.79,overcast clouds,2022-11-27 07:51:25
43,Torbay,CA,47.6666,-52.7314,40.57,96,100,34.52,moderate rain,2022-11-27 07:51:26
44,Mataura,NZ,-46.1927,168.8643,48.87,74,100,2.24,overcast clouds,2022-11-27 07:52:26
45,Lac Du Bonnet,CA,50.2536,-96.0612,21.67,98,100,2.98,overcast clouds,2022-11-27 07:52:27
46,Pampierstad,ZA,-27.7832,24.6877,78.66,45,1,10.42,clear sky,2022-11-27 07:52:28
47,Cherskiy,RU,68.75,161.3,-35.75,100,27,2.57,scattered clouds,2022-11-27 07:52:28
48,East London,ZA,-33.0153,27.9116,67.14,88,40,2.3,scattered clouds,2022-11-27 07:52:29
49,Chipinge,ZW,-20.1883,32.6236,65.19,88,100,1.63,light rain,2022-11-27 07:52:29
50,Kolosovka,RU,56.4678,73.611,-3.71,82,0,4.03,clear sky,2022-11-27 07:52:30
51,Sitka,US,57.0531,-135.33,31.89,86,20,4.61,few clouds,2022-11-27 07:52:30
52,Yulara,AU,-25.2406,130.9889,90.0,25,47,12.93,scattered clouds,2022-11-27 07:52:31
53,Nikolskoye,RU,59.7035,30.7861,15.69,91,100,5.93,light snow,2022-11-27 07:52:31
54,Albany,US,42.6001,-73.9662,41.31,65,100,3.24,overcast clouds,2022-11-27 07:51:20
55,Huarmey,PE,-10.0681,-78.1522,65.8,89,96,6.76,overcast clouds,2022-11-27 07:52:32
56,Maralal,KE,1.0968,36.698,69.21,51,84,7.96,broken clouds,2022-11-27 07:52:33
57,Laguna,US,38.421,-121.4238,56.01,76,0,0.0,clear sky,2022-11-27 07:52:33
58,Sabha,LY,27.0377,14.4283,58.57,50,0,13.22,clear sky,2022-11-27 07:52:34
59,Villarrica,PY,-25.75,-56.4333,66.07,80,2,2.68,clear sky,2022-11-27 07:52:34
60,Ilulissat,GL,69.2167,-51.1,6.82,85,100,4.7,overcast clouds,2022-11-27 07:48:57
61,Esperance,AU,-33.8667,121.9,60.48,62,69,12.82,broken clouds,2022-11-27 07:52:35
62,Kapaa,US,22.0752,-159.319,70.12,68,75,5.75,broken clouds,2022-11-27 07:52:36
63,Bradford,GB,53.7939,-1.7521,50.63,85,20,5.75,few clouds,2022-11-27 07:52:36
64,Norman Wells,CA,65.282,-126.8329,12.24,85,100,14.97,light snow,2022-11-27 07:52:37
65,Chuy,UY,-33.6971,-53.4616,64.76,98,28,5.06,scattered clouds,2022-11-27 07:49:07
66,Sola,VU,-13.8833,167.55,82.71,67,41,8.19,scattered clouds,2022-11-27 07:52:38
67,Atuona,PF,-9.8,-139.0333,77.83,73,8,14.79,clear sky,2022-11-27 07:49:13
68,Asau,RO,46.4333,26.4,36.52,72,100,1.14,overcast clouds,2022-11-27 07:52:38
69,Portland,US,45.5234,-122.6762,45.61,85,100,8.01,overcast clouds,2022-11-27 07:52:39
70,Tuktoyaktuk,CA,69.4541,-133.0374,-5.42,94,100,7.52,overcast clouds,2022-11-27 07:52:39
71,Geraldton,AU,-28.7667,114.6,75.61,60,0,25.32,clear sky,2022-11-27 07:52:40
72,Severodvinsk,RU,64.5635,39.8302,1.51,85,62,7.38,broken clouds,2022-11-27 07:52:40
73,Caravelas,BR,-17.7125,-39.2481,72.45,97,100,3.78,moderate rain,2022-11-27 07:52:41
74,Tiksi,RU,71.6872,128.8694,-22.59,97,100,7.78,overcast clouds,2022-11-27 07:52:41
75,Kenai,US,60.5544,-151.2583,25.14,85,0,3.44,clear sky,2022-11-27 07:52:42
76,Kamaishi,JP,39.2667,141.8833,45.97,64,51,1.45,broken clouds,2022-11-27 07:52:42
77,Talnakh,RU,69.4865,88.3972,-3.8,97,100,12.44,overcast clouds,2022-11-27 07:52:43
78,Bluff,NZ,-46.6,168.3333,49.19,71,41,7.76,scattered clouds,2022-11-27 07:52:43
79,Paragominas,BR,-2.9667,-47.4833,71.4,93,99,2.17,overcast clouds,2022-11-27 07:52:44
80,Souillac,MU,-20.5167,57.5167,80.98,61,40,13.8,scattered clouds,2022-11-27 07:52:45
81,Mokama,IN,25.4,85.9167,81.36,27,0,3.78,clear sky,2022-11-27 07:52:46
82,Amahai,ID,-3.3333,128.9167,84.54,71,75,2.26,moderate rain,2022-11-27 07:52:46
83,Upernavik,GL,72.7868,-56.1549,10.49,87,100,8.46,overcast clouds,2022-11-27 07:48:56
84,Gornoye Loo,RU,43.7129,39.6049,55.18,95,100,7.27,overcast clouds,2022-11-27 07:52:47
85,Grand Gaube,MU,-20.0064,57.6608,81.0,62,0,10.0,clear sky,2022-11-27 07:52:47
86,Trairi,BR,-3.2778,-39.2689,80.2,70,100,11.7,overcast clouds,2022-11-27 07:50:56
87,Port Alfred,ZA,-33.5906,26.891,66.18,92,84,1.99,light rain,2022-11-27 07:52:48
88,Tancheng,CN,27.4375,115.4976,68.13,93,88,4.43,overcast clouds,2022-11-27 07:52:48
89,Astolfo Dutra,BR,-21.3153,-42.8622,69.67,98,100,2.51,overcast clouds,2022-11-27 07:53:49
90,Schmolln,DE,50.9,12.3667,36.45,96,23,5.75,few clouds,2022-11-27 07:53:50
91,Victoria,HK,22.2855,114.1577,78.96,88,93,13.0,overcast clouds,2022-11-27 07:53:50
92,Cabo San Lucas,MX,22.8909,-109.9124,71.51,70,0,3.0,clear sky,2022-11-27 07:51:08
93,Fez,MA,34.0372,-4.9998,44.85,39,0,5.75,clear sky,2022-11-27 07:53:51
94,Taltal,CL,-25.4,-70.4833,62.64,83,26,0.31,scattered clouds,2022-11-27 07:51:41
95,Fonte Boa,BR,-2.4959,-66.2662,72.95,100,100,2.28,overcast clouds,2022-11-27 07:53:52
96,Faanui,PF,-16.4833,-151.75,79.09,75,21,14.32,light rain,2022-11-27 07:53:52
97,Nohar,IN,29.1833,74.7667,78.8,12,2,2.62,clear sky,2022-11-27 07:53:53
98,Yellowknife,CA,62.456,-114.3525,12.72,85,100,5.75,light snow,2022-11-27 07:53:53
99,Makakilo City,US,21.3469,-158.0858,71.56,66,0,4.61,clear sky,2022-11-27 07:53:05
100,Mitsamiouli,KM,-11.3847,43.2844,88.09,55,40,11.5,scattered clouds,2022-11-27 07:53:54
101,Ponta Delgada,PT,37.7333,-25.6667,54.32,71,20,6.91,few clouds,2022-11-27 07:53:54
102,Tumsar,IN,21.3833,79.7333,80.46,24,0,3.18,clear sky,2022-11-27 07:53:55
103,Hofn,IS,64.2539,-15.2082,41.86,77,100,26.66,overcast clouds,2022-11-27 07:53:55
104,Opuwo,NA,-18.0607,13.84,84.0,14,7,6.2,clear sky,2022-11-27 07:53:56
105,Emmett,US,43.8735,-116.4993,38.35,84,100,5.01,overcast clouds,2022-11-27 07:53:57
106,Thompson,CA,55.7435,-97.8558,17.76,93,100,3.44,light snow,2022-11-27 07:53:57
107,Hermanus,ZA,-34.4187,19.2345,72.81,54,4,14.92,clear sky,2022-11-27 07:53:58
108,Barrow,US,71.2906,-156.7887,-2.18,78,75,3.44,broken clouds,2022-11-27 07:53:58
109,Cidreira,BR,-30.1811,-50.2056,70.12,90,66,14.58,broken clouds,2022-11-27 07:53:59
110,Pochutla,MX,15.7432,-96.4661,74.82,83,9,3.33,clear sky,2022-11-27 07:53:59
111,Castro,BR,-24.7911,-50.0119,59.74,97,99,6.15,overcast clouds,2022-11-27 07:54:00
112,Dikson,RU,73.5069,80.5464,16.34,94,100,3.58,overcast clouds,2022-11-27 07:53:19
113,Acapulco,MX,16.8634,-99.8901,76.33,86,93,2.53,overcast clouds,2022-11-27 07:54:01
114,Vaini,TO,-21.2,-175.2,78.96,94,75,5.75,broken clouds,2022-11-27 07:54:01
115,Yerbogachen,RU,61.2767,108.0108,-13.59,90,100,5.37,overcast clouds,2022-11-27 07:54:02
116,Nanakuli,US,21.3906,-158.1547,72.99,52,0,4.61,clear sky,2022-11-27 07:54:02
117,Digha,IN,21.6833,87.55,81.34,32,2,2.8,clear sky,2022-11-27 07:54:03
118,Mezen,RU,65.8522,44.24,13.42,89,100,7.18,overcast clouds,2022-11-27 07:54:03
119,Normandin,CA,48.8333,-72.5321,34.11,86,73,8.05,broken clouds,2022-11-27 07:54:04
120,Iranshahr,IR,27.2025,60.6848,79.14,15,0,4.61,clear sky,2022-11-27 07:54:04
121,Gobabis,NA,-22.45,18.9667,84.18,18,0,7.0,clear sky,2022-11-27 07:54:05
122,El Cope,PA,8.6167,-80.6,67.51,94,94,1.3,overcast clouds,2022-11-27 07:54:05
123,Ribeira Grande,PT,38.5167,-28.7,57.78,67,20,8.05,few clouds,2022-11-27 07:54:06
124,Villaviciosa,ES,43.4813,-5.4357,56.16,97,100,6.2,overcast clouds,2022-11-27 07:54:06
125,Avarua,CK,-21.2078,-159.775,75.25,73,100,9.22,overcast clouds,2022-11-27 07:54:07
126,Imeni Poliny Osipenko,RU,52.4201,136.4853,-0.02,95,8,2.59,clear sky,2022-11-27 07:54:07
127,Coihaique,CL,-45.5752,-72.0662,48.15,71,0,6.91,clear sky,2022-11-27 07:54:08
128,Kruisfontein,ZA,-34.0033,24.7314,68.88,52,59,9.55,light rain,2022-11-27 07:54:08
129,Antofagasta,CL,-23.65,-70.4,63.68,87,57,1.7,broken clouds,2022-11-27 07:54:09
130,Georgetown,MY,5.4112,100.3354,85.95,82,20,5.01,thunderstorm,2022-11-27 07:49:31
131,Lovozero,RU,68.005,35.0117,20.23,94,100,6.15,overcast clouds,2022-11-27 07:54:10
132,Comodoro Rivadavia,AR,-45.8667,-67.5,48.06,87,0,4.61,clear sky,2022-11-27 07:55:10
133,Sidrolandia,BR,-20.9319,-54.9614,63.82,73,0,5.7,clear sky,2022-11-27 07:55:11
134,Hamilton,US,39.1834,-84.5333,48.18,92,100,9.22,light rain,2022-11-27 07:55:11
135,Longyearbyen,SJ,78.2186,15.6401,22.84,80,75,3.44,broken clouds,2022-11-27 07:55:12
136,Naze,JP,28.3667,129.4833,70.72,64,72,14.58,broken clouds,2022-11-27 07:55:12
137,Reyes,BO,-14.3167,-67.3833,71.64,59,94,3.02,overcast clouds,2022-11-27 07:55:13
138,Ouargaye,BF,11.5033,0.0572,77.65,22,5,8.93,clear sky,2022-11-27 07:55:13
139,Matara,LK,5.9485,80.5353,82.44,72,52,7.36,broken clouds,2022-11-27 07:55:14
140,Miri,MY,4.4148,114.0089,84.34,74,40,1.14,scattered clouds,2022-11-27 07:55:14
141,Bayir,TR,37.2687,28.2167,46.92,61,100,4.23,overcast clouds,2022-11-27 07:55:15
142,Saint-Pierre,RE,-21.3393,55.4781,84.18,54,0,12.66,clear sky,2022-11-27 07:55:15
143,Winchester,GB,51.0651,-1.3187,55.65,97,75,3.44,broken clouds,2022-11-27 07:51:05
144,Tasiilaq,GL,65.6145,-37.6368,16.95,62,100,7.2,overcast clouds,2022-11-27 07:55:16
145,Mananjary,MG,-21.2167,48.3333,82.4,57,0,10.45,clear sky,2022-11-27 07:55:16
146,Maniitsoq,GL,65.4167,-52.9,24.21,77,100,11.7,overcast clouds,2022-11-27 07:55:17
147,Corralillo,CU,22.9819,-80.5856,72.9,92,7,7.76,moderate rain,2022-11-27 07:55:17
148,Ugoofaaru,MV,5.6667,73.0,80.94,70,100,4.83,overcast clouds,2022-11-27 07:55:18
149,Tazovskiy,RU,67.4667,78.7,13.37,95,100,13.8,light snow,2022-11-27 07:55:18
150,Alta Floresta,BR,-9.8756,-56.0861,69.57,99,100,3.06,light rain,2022-11-27 07:55:07
151,Havelock,US,34.8791,-76.9013,62.92,93,0,0.0,clear sky,2022-11-27 07:55:19
152,Eirunepe,BR,-6.6603,-69.8736,71.96,100,100,2.19,overcast clouds,2022-11-27 07:55:19
153,Ayagoz,KZ,47.9714,80.4392,-15.2,89,7,13.51,clear sky,2022-11-27 07:55:20
154,Hovd,MN,48.0056,91.6419,-1.12,48,58,5.64,broken clouds,2022-11-27 07:55:21
155,Hithadhoo,MV,-0.6,73.0833,81.81,74,88,9.53,overcast clouds,2022-11-27 07:55:21
156,Talcahuano,CL,-36.7167,-73.1167,53.28,100,100,5.75,mist,2022-11-27 07:55:22
157,Coahuayana,MX,18.7333,-103.6833,71.92,87,38,3.04,scattered clouds,2022-11-27 07:55:22
158,Solnechnyy,RU,50.7214,136.6319,8.74,95,37,3.91,scattered clouds,2022-11-27 07:55:23
159,Hasaki,JP,35.7333,140.8333,57.6,53,1,20.78,clear sky,2022-11-27 07:55:23
160,Warrington,GB,53.3925,-2.5802,50.99,87,100,1.01,overcast clouds,2022-11-27 07:55:24
161,Vila Velha,BR,-20.3297,-40.2925,72.95,95,75,2.3,broken clouds,2022-11-27 07:55:24
162,Jabinyanah,TN,35.035,10.9081,58.8,62,97,33.93,overcast clouds,2022-11-27 07:55:25
163,Russell,US,32.3502,-85.1999,67.19,94,100,8.05,heavy intensity rain,2022-11-27 07:55:25
164,Soyo,AO,-6.1349,12.3689,74.39,92,100,2.35,light rain,2022-11-27 07:55:26
165,Port Said,EG,31.2565,32.2841,64.38,72,40,5.75,scattered clouds,2022-11-27 07:55:27
166,Fairbanks,US,64.8378,-147.7164,11.08,87,100,0.0,light snow,2022-11-27 07:55:27
167,Flinders,AU,-34.5833,150.8552,73.26,88,92,2.95,overcast clouds,2022-11-27 07:55:28
168,Namatanai,PG,-3.6667,152.4333,82.2,69,100,7.07,overcast clouds,2022-11-27 07:55:28
169,Sarankhola,BD,22.3082,89.7897,85.35,30,4,3.71,clear sky,2022-11-27 07:55:29
170,Kavaratti,IN,10.5669,72.642,81.32,73,25,6.24,scattered clouds,2022-11-27 07:55:29
171,Saskylakh,RU,71.9167,114.0833,-3.89,98,100,4.97,overcast clouds,2022-11-27 07:55:30
172,Abu Samrah,SY,35.3029,37.1841,56.48,63,100,8.46,overcast clouds,2022-11-27 07:55:30
173,Necochea,AR,-38.5473,-58.7368,59.07,87,65,6.8,moderate rain,2022-11-27 07:55:31
174,Nikolayevsk-Na-Amure,RU,53.1406,140.73,14.11,92,100,8.81,light snow,2022-11-27 07:55:31
175,Amapa,BR,1.0,-52.0,70.18,100,100,0.76,overcast clouds,2022-11-27 07:55:32
176,Kavieng,PG,-2.5744,150.7967,83.64,71,90,8.21,overcast clouds,2022-11-27 07:55:32
177,Vilyuysk,RU,63.7553,121.6247,-39.01,100,72,2.01,broken clouds,2022-11-27 07:55:33
178,Atar,MR,20.5169,-13.0499,67.89,25,0,9.22,clear sky,2022-11-27 07:55:33
179,Quirinopolis,BR,-18.4483,-50.4517,67.59,51,0,2.17,clear sky,2022-11-27 07:56:34
180,Mount Isa,AU,-20.7333,139.5,87.57,45,40,18.41,scattered clouds,2022-11-27 07:56:34
181,Yaring,TH,6.8662,101.3689,83.28,68,39,6.55,scattered clouds,2022-11-27 07:56:35
182,Palmas,BR,-10.2128,-48.3603,73.27,94,40,2.3,scattered clouds,2022-11-27 07:56:35
183,Qaqortoq,GL,60.7167,-46.0333,30.51,90,100,3.47,overcast clouds,2022-11-27 07:56:36
184,Fukue,JP,32.6881,128.8419,62.96,67,0,2.3,clear sky,2022-11-27 07:56:36
185,Kupang,ID,-10.1667,123.5833,82.98,78,40,8.05,moderate rain,2022-11-27 07:56:37
186,College,US,64.8569,-147.8028,11.07,87,100,0.0,light snow,2022-11-27 07:56:37
187,Veraval,IN,20.9,70.3667,82.8,29,0,6.8,clear sky,2022-11-27 07:56:38
188,Dicabisagan,PH,17.0818,122.4157,81.79,70,10,5.1,clear sky,2022-11-27 07:56:38
189,Srednekolymsk,RU,67.45,153.6833,-43.26,99,43,0.89,scattered clouds,2022-11-27 07:56:38
190,Camana,PE,-16.6228,-72.7111,67.51,86,91,7.83,overcast clouds,2022-11-27 07:56:39
191,Maldonado,UY,-34.6667,-54.9167,69.22,81,99,8.61,overcast clouds,2022-11-27 07:52:26
192,Dabhol,IN,17.6,73.1667,86.4,55,5,8.61,clear sky,2022-11-27 07:56:40
193,Birao,CF,10.2849,22.7882,84.4,13,20,9.62,few clouds,2022-11-27 07:56:41
194,Carnarvon,AU,-24.8667,113.6333,75.25,66,0,22.35,clear sky,2022-11-27 07:56:41
195,Cap Malheureux,MU,-19.9842,57.6142,80.47,59,0,7.0,clear sky,2022-11-27 07:56:42
196,Bonthe,SL,7.5264,-12.505,77.34,88,65,4.09,light rain,2022-11-27 07:56:42
197,Ayan,RU,56.45,138.1667,2.66,77,0,14.9,clear sky,2022-11-27 07:56:43
198,Damaturu,NG,11.747,11.9608,74.88,28,73,10.45,broken clouds,2022-11-27 07:56:43
199,Airai,TL,-8.9266,125.4092,63.39,94,100,1.81,light rain,2022-11-27 07:56:44
200,Constitucion,CL,-35.3333,-72.4167,56.19,89,18,4.54,few clouds,2022-11-27 07:56:45
201,Taoudenni,ML,22.6783,-3.9836,71.92,31,96,16.13,overcast clouds,2022-11-27 07:56:45
202,Olavarria,AR,-36.8927,-60.3225,58.42,78,39,7.45,scattered clouds,2022-11-27 07:56:46
203,Jumla,NP,29.2747,82.1838,64.89,24,19,6.89,few clouds,2022-11-27 07:56:46
204,Svetlogorsk,BY,52.6333,29.7333,29.41,98,100,5.3,light snow,2022-11-27 07:56:47
205,Emmen,NL,52.7792,6.9069,42.58,87,100,8.01,light rain,2022-11-27 07:56:48
206,Lorengau,PG,-2.0226,147.2712,83.59,68,95,7.29,overcast clouds,2022-11-27 07:56:48
207,Puerto Colombia,CO,10.9878,-74.9547,78.89,89,100,7.61,overcast clouds,2022-11-27 07:56:49
208,Moose Factory,CA,51.2585,-80.6094,33.8,93,100,6.91,overcast clouds,2022-11-27 07:56:49
209,Gambela,ET,8.25,34.5833,78.48,64,100,2.46,overcast clouds,2022-11-27 07:56:50
210,Goundam,ML,16.4145,-3.6708,71.35,13,100,7.85,overcast clouds,2022-11-27 07:56:50
211,Klaksvik,FO,62.2266,-6.589,47.32,83,93,50.35,light rain,2022-11-27 07:56:51
212,Dzhebariki-Khaya,RU,62.2167,135.8,-48.28,100,46,0.29,scattered clouds,2022-11-27 07:56:51
213,Sao Joao Da Barra,BR,-21.6403,-41.0511,72.1,96,98,13.65,light rain,2022-11-27 07:56:52
214,Port Elizabeth,ZA,-33.918,25.5701,71.31,70,75,7.0,broken clouds,2022-11-27 07:52:18
215,Henties Bay,NA,-22.116,14.2845,62.15,73,79,8.72,broken clouds,2022-11-27 07:56:52
216,Hornepayne,CA,49.2138,-84.7705,32.22,81,100,8.97,overcast clouds,2022-11-27 07:56:53
217,Broken Hill,AU,-31.95,141.4333,76.46,25,31,15.43,scattered clouds,2022-11-27 07:56:53
218,Mandurah,AU,-32.55,115.7,66.22,67,0,23.04,clear sky,2022-11-27 07:56:54
219,Alyangula,AU,-13.8483,136.4192,86.94,64,100,16.15,overcast clouds,2022-11-27 07:56:55
220,Talaya,RU,61.3833,152.75,-13.97,99,100,5.64,light snow,2022-11-27 07:56:55
221,Bati,ET,11.1833,40.0167,71.8,39,34,8.55,scattered clouds,2022-11-27 07:57:56
222,Cayenne,GF,4.9333,-52.3333,73.44,100,100,0.0,overcast clouds,2022-11-27 07:57:57
223,Wooster,US,40.8051,-81.9351,47.59,65,100,9.82,overcast clouds,2022-11-27 07:57:57
224,Kathu,TH,7.9178,98.3332,86.7,99,93,7.7,overcast clouds,2022-11-27 07:57:58
225,Shache,CN,38.4167,77.2406,63.0,12,2,4.05,clear sky,2022-11-27 07:57:58
226,Roebourne,AU,-20.7833,117.1333,86.43,54,97,15.23,overcast clouds,2022-11-27 07:57:59
227,Abha,SA,18.2164,42.5053,66.02,30,0,0.0,clear sky,2022-11-27 07:54:44
228,Sinnamary,GF,5.3833,-52.95,77.67,86,96,9.66,overcast clouds,2022-11-27 07:57:59
229,Provideniya,RU,64.3833,-173.3,18.39,96,97,3.22,light snow,2022-11-27 07:58:00
230,Ancud,CL,-41.8697,-73.8203,51.55,58,56,1.61,broken clouds,2022-11-27 07:57:29
231,Yar-Sale,RU,66.8333,70.8333,3.92,93,94,9.62,overcast clouds,2022-11-27 07:58:01
232,Oistins,BB,13.0667,-59.5333,80.69,78,75,24.16,light rain,2022-11-27 07:58:01
233,Auki,SB,-8.7676,160.7034,78.55,84,100,5.41,overcast clouds,2022-11-27 07:58:02
234,Bahia Honda,CU,22.9036,-83.1592,73.92,89,85,3.98,overcast clouds,2022-11-27 07:58:02
235,Sistranda,NO,63.7256,8.834,44.56,73,100,12.1,overcast clouds,2022-11-27 07:58:03
236,Lensk,RU,60.7253,114.9278,-20.74,99,98,4.5,overcast clouds,2022-11-27 07:57:02
237,Whitehorse,CA,60.7161,-135.0538,20.17,73,100,9.22,light snow,2022-11-27 07:56:00
238,Listvyanskiy,RU,54.4399,83.4984,-9.65,82,78,4.88,broken clouds,2022-11-27 07:58:04
239,Lagoa,PT,39.05,-27.9833,60.4,59,8,3.78,clear sky,2022-11-27 07:58:04
240,Nanyang,CN,32.9947,112.5328,54.7,72,100,7.56,overcast clouds,2022-11-27 07:58:05
241,Mogadishu,SO,2.0371,45.3438,85.87,70,75,11.5,broken clouds,2022-11-27 07:58:05
242,Oume,JP,35.7839,139.2431,60.85,33,65,2.19,broken clouds,2022-11-27 07:58:06
243,Ravar,IR,31.2656,56.8055,70.21,16,0,3.96,clear sky,2022-11-27 07:58:06
244,Saint George,US,37.1041,-113.5841,43.25,51,0,1.01,clear sky,2022-11-27 07:58:07
245,Havre-Saint-Pierre,CA,50.2334,-63.5986,33.8,93,40,3.44,scattered clouds,2022-11-27 07:58:07
246,Los Llanos De Aridane,ES,28.6585,-17.9182,63.12,32,20,11.5,few clouds,2022-11-27 07:58:08
247,Umm Lajj,SA,25.0213,37.2685,77.34,46,5,10.98,clear sky,2022-11-27 07:58:08
248,Umea,SE,63.8284,20.2597,33.73,93,100,8.05,overcast clouds,2022-11-27 07:58:08
249,Chokurdakh,RU,70.6333,147.9167,-35.45,100,71,4.92,broken clouds,2022-11-27 07:58:09
250,Kerouane,GN,9.2667,-9.0167,71.53,38,43,1.66,scattered clouds,2022-11-27 07:58:09
251,Saldanha,ZA,-33.0117,17.9442,67.91,55,0,12.84,clear sky,2022-11-27 07:58:10
252,Karratha,AU,-20.7377,116.8463,86.65,49,84,13.82,broken clouds,2022-11-27 07:58:10
253,Remontnoye,RU,46.5614,43.6501,39.2,88,100,11.01,light rain,2022-11-27 07:58:11
254,Sarangani,PH,5.4033,125.4636,83.01,75,63,14.0,broken clouds,2022-11-27 07:58:11
255,Khandbari,NP,27.3747,87.2039,73.24,47,11,5.77,few clouds,2022-11-27 07:58:12
256,Villamontes,BO,-21.25,-63.5,65.91,38,0,6.13,clear sky,2022-11-27 07:58:12
257,Eyl,SO,7.9803,49.8164,86.2,51,83,16.82,broken clouds,2022-11-27 07:58:13
258,Fortuna,US,40.5982,-124.1573,46.92,94,100,5.75,overcast clouds,2022-11-27 07:58:13
259,Meulaboh,ID,4.1363,96.1285,83.77,67,66,5.79,broken clouds,2022-11-27 07:58:14
260,Batarci,RO,48.0333,23.1667,39.51,79,96,1.5,overcast clouds,2022-11-27 07:58:14
261,Qaanaaq,GL,77.484,-69.3632,-6.05,76,91,7.81,overcast clouds,2022-11-27 07:58:15
262,Port Hedland,AU,-20.3167,118.5667,86.05,62,10,16.11,clear sky,2022-11-27 07:58:15
263,Bambous Virieux,MU,-20.3428,57.7575,80.85,61,40,13.8,scattered clouds,2022-11-27 07:58:16
264,Belyy Yar,RU,53.6039,91.3903,1.85,57,75,11.18,light snow,2022-11-27 07:58:16
265,Turayf,SA,31.6725,38.6637,55.65,82,0,16.11,clear sky,2022-11-27 07:58:17
266,Hirara,JP,24.8,125.2833,79.07,69,40,14.97,scattered clouds,2022-11-27 07:58:17
267,Sal Rei,CV,16.1833,-22.9167,71.8,94,0,11.5,clear sky,2022-11-27 07:58:18
268,Taos,US,36.4072,-105.5731,39.54,46,100,3.0,overcast clouds,2022-11-27 07:57:06
269,Presidencia Roque Saenz Pena,AR,-26.7852,-60.4388,65.19,48,2,3.8,clear sky,2022-11-27 07:59:18
270,Kovdor,RU,67.5662,30.4758,17.2,96,100,5.57,overcast clouds,2022-11-27 07:59:19
271,Leningradskiy,RU,69.3833,178.4167,-18.54,95,21,4.16,few clouds,2022-11-27 07:59:19
272,Hadejia,NG,12.4498,10.0444,72.16,19,100,9.57,overcast clouds,2022-11-27 07:59:20
273,Mar Del Plata,AR,-38.0023,-57.5575,64.09,99,100,5.01,fog,2022-11-27 07:59:20
274,Vardo,NO,70.3705,31.1107,30.18,86,100,18.41,overcast clouds,2022-11-27 07:59:21
275,The Valley,AI,18.217,-63.0578,79.11,72,2,16.31,clear sky,2022-11-27 07:59:22
276,Itarema,BR,-2.9248,-39.9167,78.4,79,100,11.56,overcast clouds,2022-11-27 07:59:22
277,Motygino,RU,58.1831,94.7592,-11.9,93,100,5.84,overcast clouds,2022-11-27 07:59:22
278,Bengkulu,ID,-3.8004,102.2655,82.72,70,92,7.02,overcast clouds,2022-11-27 07:59:23
279,Kodiak,US,57.79,-152.4072,27.45,71,29,13.04,scattered clouds,2022-11-27 07:59:23
280,Gibara,CU,21.1097,-76.1317,75.43,79,6,8.97,clear sky,2022-11-27 07:59:24
281,Del Rio,US,29.3627,-100.8968,46.24,78,0,2.26,clear sky,2022-11-27 07:59:24
282,Buala,SB,-8.145,159.5921,80.6,80,100,5.03,light rain,2022-11-27 07:59:25
283,Ostrovnoy,RU,68.0531,39.5131,23.31,92,96,23.35,overcast clouds,2022-11-27 07:59:25
284,Pevek,RU,69.7008,170.3133,-25.56,96,19,4.94,few clouds,2022-11-27 07:59:26
285,Sobolevo,RU,54.4299,31.8996,31.06,99,100,7.16,light snow,2022-11-27 07:59:26
286,Nishihara,JP,26.1842,127.7558,76.68,61,20,16.11,few clouds,2022-11-27 07:59:27
287,Piossasco,IT,44.9905,7.4637,46.85,71,8,1.36,clear sky,2022-11-27 07:59:27
288,Zyryanka,RU,65.75,150.85,-43.35,100,52,3.0,broken clouds,2022-11-27 07:59:28
289,Manica,FR,49.0,-1.1667,52.68,98,100,8.95,light rain,2022-11-27 07:59:28
290,Saint-Philippe,RE,-21.3585,55.7679,84.11,58,0,12.44,clear sky,2022-11-27 07:59:29
291,Sabang,ID,5.8933,95.3214,81.99,73,34,10.83,scattered clouds,2022-11-27 07:59:29
292,Beloha,MG,-25.1667,45.05,93.88,34,34,3.78,scattered clouds,2022-11-27 07:59:30
293,Lichinga,MZ,-13.3128,35.2406,71.69,68,40,18.41,scattered clouds,2022-11-27 07:59:30
294,Mendi,PG,-6.1761,143.6513,56.41,98,100,1.63,overcast clouds,2022-11-27 07:59:31
295,Zilair,RU,52.2332,57.4392,10.9,78,100,13.27,overcast clouds,2022-11-27 07:59:31
296,San Vicente,AR,-26.6167,-54.1333,62.87,85,1,5.53,clear sky,2022-11-27 07:59:32
297,Morropon,PE,-5.1822,-79.9689,68.86,81,76,2.24,broken clouds,2022-11-27 07:59:32
298,Mount Gambier,AU,-37.8333,140.7667,54.03,66,94,8.81,overcast clouds,2022-11-27 07:54:59
299,Capao Da Canoa,BR,-29.7456,-50.0097,70.09,90,79,14.16,broken clouds,2022-11-27 07:59:33
300,Quatre Cocos,MU,-20.2078,57.7625,80.71,57,0,12.12,clear sky,2022-11-27 07:59:34
301,Hambantota,LK,6.1241,81.1185,88.14,70,20,3.44,few clouds,2022-11-27 07:59:34
302,Aklavik,CA,68.2191,-135.0107,-2.16,96,100,9.44,overcast clouds,2022-11-27 07:57:20
303,The Pas,CA,53.8251,-101.2541,17.62,86,0,2.3,clear sky,2022-11-27 07:59:35
304,Ewa Beach,US,21.3156,-158.0072,72.99,73,100,4.0,overcast clouds,2022-11-27 07:59:35
305,Okha,RU,53.5739,142.9478,20.39,69,95,23.67,overcast clouds,2022-11-27 07:59:36
306,Safaga,EG,26.7292,33.9365,71.26,45,100,11.05,overcast clouds,2022-11-27 07:59:37
307,Kununurra,AU,-15.7667,128.7333,82.38,74,75,13.8,broken clouds,2022-11-27 07:56:59
308,Goksun,TR,38.021,36.4973,41.56,69,100,3.76,overcast clouds,2022-11-27 07:59:37
309,Molina,CL,-35.1167,-71.2833,60.37,68,0,2.33,clear sky,2022-11-27 07:59:38
310,Beloeil,CA,45.5668,-73.1992,43.02,70,0,9.22,clear sky,2022-11-27 07:59:03
311,San Jose,US,37.3394,-121.895,58.21,57,0,3.0,clear sky,2022-11-27 07:59:23
312,Nehe,CN,48.4833,124.8333,11.71,95,100,2.82,light snow,2022-11-27 07:59:39
313,Kabala,SL,9.5833,-11.55,67.03,54,95,0.47,overcast clouds,2022-11-27 08:00:39
314,Progreso,MX,21.2833,-89.6667,75.11,82,71,6.15,broken clouds,2022-11-27 08:00:40
315,Long Beach,US,33.767,-118.1892,60.98,91,0,4.36,clear sky,2022-11-27 07:58:57
316,Ust-Barguzin,RU,53.45,108.9833,8.67,90,100,6.33,light snow,2022-11-27 08:00:41
317,Trinidad,BO,-14.8333,-64.9,70.23,52,65,2.44,broken clouds,2022-11-27 08:00:41
318,San Rafael,AR,-34.6177,-68.3301,72.57,54,4,5.88,clear sky,2022-11-27 08:00:42
319,Mehamn,NO,71.0357,27.8492,31.95,80,20,13.8,few clouds,2022-11-27 07:58:43
320,Springfield,US,37.2153,-93.2982,48.43,95,100,4.61,mist,2022-11-27 08:00:03
321,Yinchuan,CN,38.4681,106.2731,47.23,23,36,6.24,scattered clouds,2022-11-27 07:57:34
322,Rubik,AL,41.7744,19.7861,49.33,71,100,10.11,overcast clouds,2022-11-27 08:00:43
323,Tonj,SS,7.2737,28.6822,90.73,20,38,6.49,scattered clouds,2022-11-27 08:00:44
324,Anadyr,RU,64.75,177.4833,-4.0,83,92,5.99,overcast clouds,2022-11-27 08:00:45
325,San Patricio,US,28.017,-97.5169,60.64,70,0,9.13,clear sky,2022-11-27 08:00:45
326,Vao,NC,-22.6667,167.4833,75.42,67,1,15.93,clear sky,2022-11-27 08:00:46
327,Touros,BR,-5.1989,-35.4608,78.1,80,99,11.9,overcast clouds,2022-11-27 08:00:46
328,Udalguri,IN,26.7667,92.1333,77.23,45,0,5.28,clear sky,2022-11-27 08:00:47
329,Tres Lagoas,BR,-20.7511,-51.6783,66.69,63,0,4.29,clear sky,2022-11-27 07:57:47
330,Salalah,OM,17.0151,54.0924,84.99,42,2,8.68,clear sky,2022-11-27 08:00:48
331,Leshukonskoye,RU,64.8989,45.7622,4.64,92,100,4.97,overcast clouds,2022-11-27 08:00:48
332,Baculin,PH,7.4525,126.5842,83.53,72,12,9.8,few clouds,2022-11-27 08:00:49
333,Clyde River,CA,70.4692,-68.5914,-17.68,96,20,4.27,few clouds,2022-11-27 08:00:49
334,Scarborough,GB,54.2797,-0.4044,50.32,90,100,7.0,overcast clouds,2022-11-27 08:00:49
335,Tignere,CM,7.3667,12.65,79.02,22,41,2.46,scattered clouds,2022-11-27 08:00:50
336,Ambon,ID,-3.6954,128.1814,82.54,78,40,3.44,scattered clouds,2022-11-27 08:00:50
337,Cariamanga,EC,-4.3333,-79.55,50.59,89,98,2.26,overcast clouds,2022-11-27 08:00:51
338,Mezhdurechenskiy,RU,59.6,65.9333,0.73,82,10,6.08,clear sky,2022-11-27 08:00:52
339,Slubice,PL,52.3509,14.5607,41.56,92,99,1.01,overcast clouds,2022-11-27 07:59:08
340,Sept-Iles,CA,50.2001,-66.3821,30.2,91,75,3.44,broken clouds,2022-11-27 07:58:35
341,Dzerzhinskoye,RU,56.8344,95.2283,-8.57,83,100,8.81,overcast clouds,2022-11-27 08:00:53
342,Salaga,GH,8.5508,-0.5188,80.62,52,15,3.87,few clouds,2022-11-27 08:00:53
343,Honningsvag,NO,70.9821,25.9704,35.35,69,100,8.05,overcast clouds,2022-11-27 08:00:54
344,Baiyin,CN,36.5583,104.2081,45.57,36,60,6.42,broken clouds,2022-11-27 08:00:55
345,Alexandria,EG,31.2156,29.9553,62.56,63,40,4.61,scattered clouds,2022-11-27 07:57:58
346,Pervomayskoye,RU,43.919,46.7102,50.18,82,100,7.45,light rain,2022-11-27 08:00:55
347,Anzio,IT,41.4853,12.6179,55.13,79,5,5.19,clear sky,2022-11-27 08:00:56
348,Marawi,PH,7.9986,124.2928,72.41,92,71,4.83,broken clouds,2022-11-27 08:00:56
349,Fort Nelson,CA,58.8053,-122.7002,15.94,94,100,10.0,overcast clouds,2022-11-27 08:00:57
350,Merauke,ID,-8.4667,140.3333,83.61,72,47,8.12,scattered clouds,2022-11-27 08:00:58
351,Manicore,BR,-5.8092,-61.3003,72.61,98,100,0.45,heavy intensity rain,2022-11-27 08:00:58
352,Madang,PG,-5.2246,145.7966,80.24,86,100,3.8,overcast clouds,2022-11-27 08:00:59
353,Manakara,MG,-22.1333,48.0167,83.3,50,0,11.3,clear sky,2022-11-27 08:01:00
354,Ulladulla,AU,-35.35,150.4667,68.09,81,100,5.84,overcast clouds,2022-11-27 08:01:00
355,New Norfolk,AU,-42.7826,147.0587,55.71,55,54,5.99,broken clouds,2022-11-27 08:01:01
356,Baghdad,IQ,33.3406,44.4009,70.05,42,45,7.43,scattered clouds,2022-11-27 08:00:05
357,Tuatapere,NZ,-46.1333,167.6833,48.51,80,80,1.95,broken clouds,2022-11-27 08:01:01
358,Tommot,RU,58.9564,126.2925,-37.03,100,85,0.89,overcast clouds,2022-11-27 08:01:02
359,Floro,NO,61.5996,5.0328,53.56,47,100,23.02,overcast clouds,2022-11-27 08:02:03
360,Charters Towers,AU,-20.1,146.2667,79.3,75,96,10.71,overcast clouds,2022-11-27 08:02:03
361,Calabozo,VE,8.9242,-67.4293,73.2,87,80,5.77,broken clouds,2022-11-27 08:02:04
362,San Antonio,US,29.4241,-98.4936,54.46,84,0,5.75,clear sky,2022-11-27 08:01:18
363,Ust-Uda,RU,54.1742,103.0304,-9.99,74,100,10.27,overcast clouds,2022-11-27 08:02:05
364,Birin,NP,26.8865,88.0718,64.17,47,0,6.2,clear sky,2022-11-27 08:02:06
365,Poum,NC,-20.2333,164.0167,78.49,71,28,8.66,scattered clouds,2022-11-27 08:02:06
366,Bilma,NE,18.6853,12.9164,71.8,21,100,5.86,overcast clouds,2022-11-27 08:02:07
367,Berlevag,NO,70.8578,29.0864,32.0,80,100,23.02,overcast clouds,2022-11-27 07:57:21
368,Djibo,BF,14.1022,-1.6306,73.78,16,12,10.18,few clouds,2022-11-27 08:02:07
369,Presidente Medici,BR,-11.1753,-61.9014,70.41,96,100,2.51,overcast clouds,2022-11-27 08:02:08
370,Lebork,PL,54.5392,17.7501,40.48,99,66,3.22,broken clouds,2022-11-27 07:59:45
371,Gizo,SB,-8.103,156.8419,83.48,72,100,5.73,overcast clouds,2022-11-27 08:02:09
372,Nadym,RU,65.5333,72.5167,5.59,91,100,14.41,overcast clouds,2022-11-27 08:02:09
373,Sao Filipe,CV,14.8961,-24.4956,77.09,64,0,9.73,clear sky,2022-11-27 08:02:10
374,Vilhena,BR,-12.7406,-60.1458,65.86,92,74,1.95,broken clouds,2022-11-27 08:02:10
375,Pacific Grove,US,36.6177,-121.9166,56.08,74,0,5.01,clear sky,2022-11-27 08:02:11
376,Oranjemund,NA,-28.55,16.4333,68.38,59,2,10.11,clear sky,2022-11-27 07:59:39
377,Luderitz,NA,-26.6481,15.1594,74.7,45,0,14.29,clear sky,2022-11-27 08:02:12
378,Qaracala,AZ,39.8132,48.9523,62.64,49,100,20.49,overcast clouds,2022-11-27 08:02:12
379,Vieste,IT,41.8825,16.175,57.04,61,100,8.37,overcast clouds,2022-11-27 08:02:13
380,Tabou,CI,4.423,-7.3528,78.66,83,3,2.86,light rain,2022-11-27 08:02:13
381,Beidao,CN,34.5686,105.8933,58.62,61,100,7.11,overcast clouds,2022-11-27 08:02:14
382,Soubre,CI,5.7856,-6.6083,77.0,83,37,2.24,scattered clouds,2022-11-27 08:02:14
383,Bethel,US,41.3712,-73.414,46.49,67,94,4.45,overcast clouds,2022-11-27 07:57:39
384,Forbes,AU,-33.3833,148.0167,73.92,46,100,12.33,light rain,2022-11-27 08:02:15
385,Nouadhibou,MR,20.931,-17.0347,69.46,51,0,14.27,clear sky,2022-11-27 08:00:58
386,Lermontovka,RU,47.1453,134.3383,17.42,78,100,2.1,overcast clouds,2022-11-27 08:02:16
387,Basco,PH,20.4487,121.9702,80.38,82,94,18.97,overcast clouds,2022-11-27 08:02:16
388,Shingu,JP,33.7333,135.9833,57.9,70,100,0.94,overcast clouds,2022-11-27 08:02:17
389,Roald,NO,62.5833,6.1333,54.52,53,0,13.8,clear sky,2022-11-27 08:02:18
390,Kampene,CD,-3.6,26.6667,69.82,87,100,0.6,overcast clouds,2022-11-27 07:59:15
391,Concarneau,FR,47.875,-3.9225,55.69,94,100,8.14,light rain,2022-11-27 08:02:19
392,Nyurba,RU,63.2842,118.3319,-34.13,99,89,3.0,overcast clouds,2022-11-27 08:02:20
393,Paralia,GR,38.2,21.7,59.11,63,92,19.37,overcast clouds,2022-11-27 08:02:20
394,Brasileia,BR,-11.0161,-68.7481,71.37,85,24,1.03,few clouds,2022-11-27 08:02:21
395,Dombarovskiy,RU,50.7587,59.5386,11.26,71,91,12.84,overcast clouds,2022-11-27 08:02:21
396,Liberia,LR,6.5,-9.5,74.12,91,11,1.48,few clouds,2022-11-27 08:02:22
397,Wakkanai,JP,45.4094,141.6739,35.33,62,100,12.28,overcast clouds,2022-11-27 08:02:23
398,Kayes,ML,14.0,-11.0,73.13,15,86,3.87,overcast clouds,2022-11-27 08:02:13
399,Noumea,NC,-22.2763,166.4572,76.98,64,5,15.57,clear sky,2022-11-27 08:02:23
400,Lompoc,US,34.6391,-120.4579,50.52,97,100,8.05,fog,2022-11-27 08:02:24
401,Uribia,CO,11.7139,-72.266,76.08,89,87,8.34,overcast clouds,2022-11-27 08:02:24
402,Alofi,NU,-19.0595,-169.9187,78.44,80,58,15.7,broken clouds,2022-11-27 08:02:25
403,Maamba,ZM,-17.3667,27.15,78.28,63,100,2.48,light rain,2022-11-27 08:03:25
404,Baripada,IN,21.935,86.7214,82.36,29,1,5.21,clear sky,2022-11-27 08:03:26
405,Raga,SS,8.4596,25.678,85.48,16,35,7.09,scattered clouds,2022-11-27 08:03:27
406,Bonavista,CA,48.6499,-53.1147,38.91,93,100,27.69,light rain,2022-11-27 08:03:27
407,Fort Frances,CA,48.5999,-93.4003,25.02,81,0,3.44,clear sky,2022-11-27 08:03:28
408,Port Blair,IN,11.6667,92.75,83.21,72,24,8.41,few clouds,2022-11-27 08:03:28
409,Port-Cartier,CA,50.0334,-66.8654,25.75,95,99,4.12,overcast clouds,2022-11-27 08:03:29
410,Banikoara,BJ,11.2985,2.4386,76.5,18,2,7.38,clear sky,2022-11-27 08:03:30
411,West Plains,US,36.7281,-91.8524,49.03,98,100,6.91,mist,2022-11-27 08:03:30
412,Rio Gallegos,AR,-51.6226,-69.2181,42.57,75,4,5.79,clear sky,2022-11-27 08:03:31
413,Iqaluit,CA,63.7506,-68.5145,5.7,65,100,4.09,overcast clouds,2022-11-27 08:03:31
414,Langxiang,CN,46.95,128.8833,11.71,83,92,1.77,overcast clouds,2022-11-27 08:03:32
415,Tarbagatay,RU,51.4803,107.3602,0.93,62,100,12.64,overcast clouds,2022-11-27 08:03:32
416,Paamiut,GL,61.994,-49.6678,25.95,85,100,8.84,overcast clouds,2022-11-27 08:03:33
417,Montgomery,US,39.1501,-77.1997,48.79,68,0,5.75,clear sky,2022-11-27 08:03:33
418,Blythe,US,33.6103,-114.5964,52.52,20,0,4.27,clear sky,2022-11-27 08:01:35
419,Caernarfon,GB,53.1413,-4.2702,52.68,40,20,13.8,few clouds,2022-11-27 08:00:36
420,Husavik,IS,66.0449,-17.3389,38.88,99,100,15.93,overcast clouds,2022-11-27 08:03:34
421,Kulhudhuffushi,MV,6.6221,73.07,80.64,71,100,5.79,overcast clouds,2022-11-27 08:00:12
422,Launceston,AU,-41.45,147.1667,58.64,51,75,17.27,broken clouds,2022-11-27 08:02:27
423,Iracoubo,GF,5.4802,-53.2011,77.25,88,100,10.58,overcast clouds,2022-11-27 08:03:35
424,Guaruja,BR,-23.9931,-46.2564,70.02,82,9,4.41,clear sky,2022-11-27 08:03:36
425,Metro,ID,-5.1131,105.3067,85.55,67,100,9.55,overcast clouds,2022-11-27 08:03:36
426,Alma,CA,48.5501,-71.6491,33.1,90,51,8.95,broken clouds,2022-11-27 08:00:56
427,Wamba,NG,8.9333,8.6,80.19,30,92,4.29,overcast clouds,2022-11-27 08:03:37
428,Pimampiro,EC,0.4,-77.9667,55.83,88,100,2.21,overcast clouds,2022-11-27 08:03:37
429,Kholodnyy,RU,62.7167,147.95,-32.6,98,99,2.8,overcast clouds,2022-11-27 08:03:38
430,Detchino,RU,54.8092,36.3075,25.25,96,100,9.71,overcast clouds,2022-11-27 08:03:38
431,Lanigan,CA,51.8501,-105.0344,21.58,92,98,7.61,overcast clouds,2022-11-27 08:03:39
432,Pundaguitan,PH,6.3711,126.1689,83.64,72,49,15.17,scattered clouds,2022-11-27 08:03:39
433,Kyakhta,RU,50.3508,106.4494,-3.08,60,100,17.78,overcast clouds,2022-11-27 08:03:40
434,Bell Ville,AR,-32.6259,-62.6887,69.67,42,49,7.67,scattered clouds,2022-11-27 08:00:22
435,Misratah,LY,32.3754,15.0925,64.94,67,100,23.44,light rain,2022-11-27 08:03:41
436,Darhan,MN,49.4867,105.9228,1.38,81,100,16.4,overcast clouds,2022-11-27 08:03:42
437,Shimoda,JP,34.6667,138.95,57.11,63,76,8.37,broken clouds,2022-11-27 08:03:42
438,Jiangyou,CN,31.7667,104.7167,64.15,62,72,3.13,broken clouds,2022-11-27 08:03:43
439,Finnsnes,NO,69.2296,17.9811,21.81,74,100,5.79,light snow,2022-11-27 08:03:43
440,Cedar City,US,37.6775,-113.0619,31.39,68,15,5.55,few clouds,2022-11-27 08:01:40
441,Yarim,YE,14.298,44.3779,58.5,30,100,4.43,overcast clouds,2022-11-27 08:03:44
442,Umm Kaddadah,SD,13.6017,26.6876,78.33,17,4,11.21,clear sky,2022-11-27 08:03:45
443,Puerto Carreno,CO,6.189,-67.4859,75.04,90,100,3.49,overcast clouds,2022-11-27 08:03:45
444,Kyren,RU,51.6828,102.1408,-5.57,77,100,3.27,overcast clouds,2022-11-27 08:03:46
445,Ratnagiri,IN,16.9833,73.3,85.23,61,4,11.41,clear sky,2022-11-27 08:03:46
446,Healdsburg,US,38.6105,-122.8692,55.9,93,0,0.0,clear sky,2022-11-27 08:03:47
447,Pagudpud,PH,18.5616,120.7868,84.02,70,16,3.0,few clouds,2022-11-27 08:03:47
448,Slanic-Moldova,RO,46.2,26.4333,35.02,71,100,2.1,overcast clouds,2022-11-27 08:03:48
449,Caconda,AO,-13.7333,15.0667,70.2,71,71,1.1,moderate rain,2022-11-27 08:00:02
450,Tocopilla,CL,-22.092,-70.1979,65.34,78,37,4.59,scattered clouds,2022-11-27 08:02:06
451,Thunder Bay,CA,48.4001,-89.3168,32.31,83,73,10.18,broken clouds,2022-11-27 08:04:49
452,Mindelo,CV,16.8901,-24.9804,72.95,78,40,12.66,scattered clouds,2022-11-27 08:04:49
453,Guacimo,CR,10.2104,-83.6807,71.35,97,85,3.33,overcast clouds,2022-11-27 08:04:50
454,Noyabrsk,RU,63.1994,75.4507,1.02,95,100,11.18,overcast clouds,2022-11-27 08:04:50
455,Emba,KZ,48.8264,58.1442,22.46,30,97,19.28,overcast clouds,2022-11-27 08:04:51
456,Kemijarvi,FI,66.7131,27.4306,22.06,95,100,6.76,overcast clouds,2022-11-27 08:04:51
457,Mitu,CO,1.1983,-70.1733,70.72,100,100,2.21,overcast clouds,2022-11-27 08:04:52
458,Nanortalik,GL,60.1432,-45.2371,32.2,83,100,4.9,overcast clouds,2022-11-27 08:04:52
459,Sur,OM,22.5667,59.5289,83.48,47,0,5.37,clear sky,2022-11-27 08:04:53
460,Gurupi,BR,-11.7292,-49.0686,68.56,98,100,4.32,overcast clouds,2022-11-27 08:02:03
461,Vostok,RU,46.4856,135.8833,12.63,95,100,1.32,overcast clouds,2022-11-27 08:04:53
462,Nortelandia,BR,-14.4547,-56.8028,71.85,73,100,2.48,overcast clouds,2022-11-27 08:04:54
463,Te Anau,NZ,-45.4167,167.7167,46.58,94,50,1.79,scattered clouds,2022-11-27 08:04:55
464,Aquiraz,BR,-3.9014,-38.3911,80.69,75,100,9.93,overcast clouds,2022-11-27 08:04:55
465,Xinyang,CN,32.1228,114.0656,61.39,82,100,3.09,overcast clouds,2022-11-27 08:04:55
466,Sovetskiy,RU,61.3614,63.5842,1.71,85,11,5.93,few clouds,2022-11-27 08:04:56
467,Sioux Lookout,CA,50.1001,-91.917,24.57,92,66,6.96,broken clouds,2022-11-27 08:04:56
468,Nome,US,64.5011,-165.4064,6.87,72,0,9.22,clear sky,2022-11-27 08:04:57
469,Rio Negrinho,BR,-26.2544,-49.5183,63.95,99,100,3.27,overcast clouds,2022-11-27 08:04:05
470,Eydhafushi,MV,5.1033,73.0708,81.0,67,74,4.43,broken clouds,2022-11-27 08:04:58
471,Ladson,US,32.9857,-80.1098,69.66,97,100,0.0,overcast clouds,2022-11-27 08:04:59
472,Chokwe,MZ,-24.5333,32.9833,75.38,82,100,5.66,moderate rain,2022-11-27 08:04:59
473,Lata,PT,40.1629,-8.3327,48.2,68,100,4.09,overcast clouds,2022-11-27 08:05:00
474,El Sauzal,MX,31.9,-116.6833,55.38,58,4,3.13,clear sky,2022-11-27 08:05:01
475,Shalakusha,RU,62.2247,40.2539,9.55,93,89,4.25,overcast clouds,2022-11-27 08:05:02
476,Anamur,TR,36.0751,32.8369,63.1,40,100,6.02,overcast clouds,2022-11-27 08:05:02
477,Port Lincoln,AU,-34.7333,135.8667,58.39,59,100,15.57,overcast clouds,2022-11-27 08:00:57
478,Sechura,PE,-5.5569,-80.8222,65.35,83,35,7.45,scattered clouds,2022-11-27 08:01:29
479,Kieta,PG,-6.2167,155.6333,80.67,81,100,5.37,light rain,2022-11-27 08:05:03
480,Poyarkovo,RU,49.6,128.6833,3.11,96,100,2.82,overcast clouds,2022-11-27 08:05:04
481,Ahipara,NZ,-35.1667,173.1667,59.65,89,59,15.86,broken clouds,2022-11-27 08:05:04
482,Novoagansk,RU,61.9449,76.6625,-1.73,96,100,9.33,overcast clouds,2022-11-27 08:05:05
483,Urengoy,RU,65.9667,78.3667,8.4,93,100,10.4,overcast clouds,2022-11-27 08:05:05
484,Reforma,MX,18.1,-91.0167,72.25,97,97,5.39,overcast clouds,2022-11-27 08:05:06
485,Corner Brook,CA,48.9667,-57.9484,33.96,100,100,3.89,light snow,2022-11-27 08:01:45
486,Channel-Port Aux Basques,CA,47.5702,-59.1367,40.44,90,100,7.56,overcast clouds,2022-11-27 08:05:06
487,Codrington,AU,-38.2667,141.9667,53.83,74,100,13.78,overcast clouds,2022-11-27 08:05:07
488,Sete Lagoas,BR,-19.4658,-44.2467,65.28,93,0,2.48,clear sky,2022-11-27 08:05:07
489,Uruzgan,AF,32.8333,66.0,60.33,19,0,2.19,clear sky,2022-11-27 08:05:08
490,Turukhansk,RU,65.8167,87.9833,-12.55,97,100,8.43,overcast clouds,2022-11-27 08:05:09
491,Warri,NG,5.5167,5.75,84.27,68,75,3.42,broken clouds,2022-11-27 08:05:09
492,Avera,US,33.194,-82.5271,60.31,89,100,5.75,overcast clouds,2022-11-27 08:05:10
493,Morant Bay,JM,17.8815,-76.4093,78.42,83,8,6.49,clear sky,2022-11-27 08:05:10
494,Meadville,US,41.6414,-80.1515,44.98,63,0,5.75,clear sky,2022-11-27 08:05:11
495,Ringkobing,DK,56.0901,8.244,46.38,88,100,21.97,overcast clouds,2022-11-27 08:05:11
496,Cuiluan,CN,47.72,128.648,11.68,90,100,1.81,overcast clouds,2022-11-27 08:05:12
497,Tiznit,MA,29.5833,-9.5,66.33,23,0,7.07,clear sky,2022-11-27 08:05:12
498,Bilecik,TR,40.0,30.1667,39.38,75,44,4.29,scattered clouds,2022-11-27 08:01:45
499,Walvis Bay,NA,-22.9575,14.5053,58.08,75,52,9.44,broken clouds,2022-11-27 08:06:13
500,Nara,JP,34.6851,135.8049,61.5,34,0,4.76,clear sky,2022-11-27 08:04:33
501,Sorland,NO,67.667,12.6934,44.46,75,96,16.96,light rain,2022-11-27 08:06:14
502,Catalina,US,32.5056,-110.9211,50.65,32,4,1.99,clear sky,2022-11-27 08:06:14
503,Aitape,PG,-3.1374,142.3475,83.03,75,69,4.36,broken clouds,2022-11-27 08:06:15
504,Iralaya,HN,15.0,-83.2333,78.49,87,100,9.64,light rain,2022-11-27 08:06:15
505,Portage,US,41.1667,-81.1998,46.18,65,0,0.0,clear sky,2022-11-27 08:06:16
506,Saint-Joseph,RE,-21.3667,55.6167,82.09,59,12,10.4,few clouds,2022-11-27 08:06:16
507,Nuuk,GL,64.1835,-51.7216,26.4,84,99,7.18,overcast clouds,2022-11-27 08:06:17
508,Saint Anthony,US,45.0205,-93.218,37.65,79,0,11.5,clear sky,2022-11-27 08:06:17
509,Athens,GR,37.9795,23.7162,56.8,61,20,15.99,few clouds,2022-11-27 08:02:10
510,Qujing,CN,25.4833,103.7833,69.93,37,0,21.7,clear sky,2022-11-27 08:06:18
511,Oum Hadjer,TD,13.2954,19.6966,81.59,11,13,8.19,few clouds,2022-11-27 08:06:19
512,Puyang,CN,29.4603,119.8861,59.41,96,100,3.89,moderate rain,2022-11-27 08:06:19
513,Tungor,RU,53.3808,142.9564,19.87,70,91,21.41,overcast clouds,2022-11-27 08:06:20
514,Coffs Harbour,AU,-30.3,153.1333,82.36,51,59,10.36,broken clouds,2022-11-27 08:06:21
515,Grindavik,IS,63.8424,-22.4338,39.67,87,0,24.16,clear sky,2022-11-27 08:04:29
516,Dungarpur,IN,23.8333,73.7167,81.39,17,0,5.95,clear sky,2022-11-27 08:06:21
517,Vanavara,RU,60.34,102.2797,-20.33,93,98,5.88,overcast clouds,2022-11-27 08:06:22
518,Tautira,PF,-17.7333,-149.15,77.23,78,44,13.49,scattered clouds,2022-11-27 08:06:23
519,Makungu,TZ,-8.7333,35.2833,72.01,60,87,8.21,overcast clouds,2022-11-27 08:06:23
520,Peniche,PT,39.3558,-9.3811,52.45,89,100,9.62,overcast clouds,2022-11-27 08:06:24
521,Mantua,IT,45.1667,10.7833,47.44,98,14,2.1,few clouds,2022-11-27 08:06:24
522,Tezu,IN,27.9167,96.1667,79.7,26,0,2.37,clear sky,2022-11-27 08:06:25
523,Bandarbeyla,SO,9.4942,50.8122,82.27,67,39,18.03,scattered clouds,2022-11-27 08:06:25
524,Sambava,MG,-14.2667,50.1667,80.89,54,0,11.81,clear sky,2022-11-27 08:06:26
525,Korla,CN,41.7597,86.1469,38.95,9,0,7.09,clear sky,2022-11-27 08:06:26
526,Batemans Bay,AU,-35.7167,150.1833,66.09,81,100,10.4,overcast clouds,2022-11-27 08:06:27
527,Raudeberg,NO,61.9875,5.1352,52.47,63,100,17.74,overcast clouds,2022-11-27 08:06:27
528,Shreveport,US,32.5251,-93.7502,46.45,81,0,6.91,clear sky,2022-11-27 08:06:28
529,Bara,NG,10.3744,10.7288,76.87,18,53,8.08,broken clouds,2022-11-27 08:06:28
530,Setermoen,NO,68.861,18.3486,32.43,79,99,7.34,overcast clouds,2022-11-27 08:06:29
531,Lashio,MM,22.9333,97.75,80.71,47,0,3.71,clear sky,2022-11-27 08:06:29
532,Chapais,CA,49.7834,-74.8492,32.63,98,100,8.1,overcast clouds,2022-11-27 08:06:30
533,Arlit,NE,18.7369,7.3853,73.83,18,100,2.59,overcast clouds,2022-11-27 08:03:17
534,Panama City,PA,8.9936,-79.5197,76.37,86,100,2.77,overcast clouds,2022-11-27 08:02:47
535,Emerald,AU,-23.5333,148.1667,71.35,85,86,12.19,light rain,2022-11-27 08:06:30
536,Vientiane,LA,17.9667,102.6,90.91,54,51,3.53,broken clouds,2022-11-27 08:06:31
537,Otane,NZ,-39.8833,176.6333,60.01,97,100,2.1,light rain,2022-11-27 08:06:32
538,Indi,IN,17.1667,75.9667,87.89,34,2,2.93,clear sky,2022-11-27 08:06:32
539,Ginir,ET,7.1333,40.7,66.22,60,97,9.04,light rain,2022-11-27 08:06:33
540,Olafsvik,IS,64.8945,-23.7142,39.83,86,100,24.43,overcast clouds,2022-11-27 08:06:33
541,Okhotsk,RU,59.3833,143.3,-3.55,83,91,21.65,overcast clouds,2022-11-27 08:06:34
542,Zhuhai,CN,22.2769,113.5678,78.85,94,40,10.36,scattered clouds,2022-11-27 08:06:34
543,Padang,ID,-0.9492,100.3543,87.85,69,80,5.64,broken clouds,2022-11-27 08:03:11
544,Quchan,IR,37.106,58.5095,62.47,32,7,14.47,clear sky,2022-11-27 08:07:35
545,Amarante Do Maranhao,BR,-5.5667,-46.7422,70.56,98,100,1.77,overcast clouds,2022-11-27 08:07:35
546,Toccoa,US,34.5773,-83.3324,53.24,97,100,6.91,overcast clouds,2022-11-27 08:07:36
547,Daru,PG,-9.0763,143.2092,82.2,77,100,4.25,overcast clouds,2022-11-27 08:07:37
548,Kayerkan,RU,69.3497,87.7602,-7.83,99,100,8.01,overcast clouds,2022-11-27 08:07:37
549,Belmonte,BR,-15.8631,-38.8828,75.29,92,100,12.03,overcast clouds,2022-11-27 08:07:38
550,Pontes E Lacerda,BR,-15.2261,-59.3353,67.55,46,19,2.17,few clouds,2022-11-27 08:07:38
551,Maragogi,BR,-9.0122,-35.2225,74.97,86,75,6.04,broken clouds,2022-11-27 08:07:38
552,Pedreiras,BR,-4.5688,-44.6003,73.38,96,100,0.98,overcast clouds,2022-11-27 08:07:39
553,Mushie,CD,-3.0167,16.9,74.61,88,100,0.63,overcast clouds,2022-11-27 08:07:40
554,Zemio,CF,5.0314,25.1361,86.32,40,97,1.23,overcast clouds,2022-11-27 08:07:40
555,Bermeo,ES,43.4209,-2.7215,55.6,55,100,9.19,overcast clouds,2022-11-27 08:07:40
556,Kiama,AU,-34.6833,150.8667,73.45,86,96,2.3,overcast clouds,2022-11-27 08:07:41
557,Altamira,BR,-3.2033,-52.2064,71.92,89,100,1.79,overcast clouds,2022-11-27 08:04:48
558,Sulangan,PH,11.1373,123.7228,84.33,67,35,11.81,scattered clouds,2022-11-27 08:07:42
559,Grootfontein,NA,-19.5667,18.1167,82.78,35,7,9.62,clear sky,2022-11-27 08:07:42
560,Basti,IN,26.8,82.7167,79.54,27,0,1.1,clear sky,2022-11-27 08:06:44
561,Yeppoon,AU,-23.1333,150.7333,82.18,68,98,15.39,overcast clouds,2022-11-27 08:07:43
562,Along,IN,28.1667,94.7667,79.52,29,0,1.79,clear sky,2022-11-27 08:07:44
563,Barbosa Ferraz,BR,-24.03,-52.0117,63.3,92,22,3.33,few clouds,2022-11-27 08:07:44
564,Asmar,AF,35.0333,71.3581,70.45,17,0,3.13,clear sky,2022-11-27 08:07:45
565,Kochki,RU,54.3358,80.4806,-8.39,81,87,3.94,overcast clouds,2022-11-27 08:07:45
566,Izumo,JP,35.3667,132.7667,55.18,73,15,6.46,few clouds,2022-11-27 08:02:53
567,Tabat,ID,-2.635,115.2274,83.39,81,100,3.11,light rain,2022-11-27 08:07:46
568,Cloquet,US,46.7216,-92.4594,35.19,91,100,1.01,overcast clouds,2022-11-27 08:07:47
569,Kawambwa,ZM,-9.7915,29.0791,72.16,72,98,3.38,light rain,2022-11-27 08:07:47
570,Nizhniy Baskunchak,RU,48.2198,46.8311,37.49,65,100,15.32,overcast clouds,2022-11-27 08:03:23
571,Khor,RU,47.8861,134.9464,16.2,78,100,4.74,overcast clouds,2022-11-27 08:07:48
572,Barcelos,PT,41.5388,-8.6151,51.94,68,100,6.51,overcast clouds,2022-11-27 08:07:48
573,Aksu,CN,41.1231,80.2644,46.13,19,0,13.42,clear sky,2022-11-27 08:07:49
574,Zeya,RU,53.75,127.2667,-1.08,97,100,1.88,overcast clouds,2022-11-27 08:07:50
575,Luanda,AO,-8.8368,13.2343,79.0,77,99,7.29,light rain,2022-11-27 08:07:50
576,Koroni,GR,36.8,21.95,60.08,60,100,15.14,overcast clouds,2022-11-27 08:07:51
577,Sarkand,KZ,45.41,79.9186,10.62,76,0,4.5,clear sky,2022-11-27 08:07:51
578,Chilca,PE,-12.5211,-76.7372,65.34,94,100,4.45,overcast clouds,2022-11-27 08:07:52
579,Champoton,MX,19.35,-90.7167,74.08,91,88,5.59,overcast clouds,2022-11-27 08:07:52
580,Ilhabela,BR,-23.7781,-45.3581,68.25,93,62,2.51,broken clouds,2022-11-27 08:07:53
581,Flic En Flac,MU,-20.2742,57.3631,82.96,55,27,7.31,scattered clouds,2022-11-27 08:07:53
582,Joshimath,IN,30.5667,79.5667,67.3,22,31,6.71,scattered clouds,2022-11-27 08:07:54
583,Mosetse,BW,-20.75,26.65,78.67,50,97,5.21,overcast clouds,2022-11-27 08:07:54
584,Vila,PT,42.0304,-8.1588,45.48,69,100,5.75,overcast clouds,2022-11-27 08:07:55
585,Saint-Louis,SN,16.3333,-15.0,74.53,14,0,9.89,clear sky,2022-11-27 08:07:55
586,Gberia Fotombu,SL,9.8833,-11.1667,66.7,45,91,0.74,overcast clouds,2022-11-27 08:07:56
587,Birr,IE,53.0914,-7.9133,46.96,90,70,9.69,broken clouds,2022-11-27 08:04:25
588,Las Lomas,PA,8.4333,-82.4,73.51,93,90,2.86,light rain,2022-11-27 08:07:56
589,Egvekinot,RU,66.3167,-179.1667,-6.48,94,91,4.74,overcast clouds,2022-11-27 08:08:57
590,Praia Da Vitoria,PT,38.7333,-27.0667,54.75,82,4,4.68,clear sky,2022-11-27 08:08:57
591,Baker City,US,44.7749,-117.8344,32.59,86,20,0.0,few clouds,2022-11-27 08:08:58
592,Sumter,US,28.7086,-82.0831,72.99,90,94,6.06,overcast clouds,2022-11-27 08:08:58
593,Lengshuijiang,CN,27.6881,111.4294,73.49,77,90,5.23,overcast clouds,2022-11-27 08:08:59
594,Assiniboia,CA,49.6334,-105.9845,32.85,76,72,15.88,broken clouds,2022-11-27 08:08:59
595,Esmeraldas,BR,-19.7625,-44.3139,65.26,93,4,2.95,clear sky,2022-11-27 08:09:00
596,San Nicolas,PH,18.1725,120.5953,85.91,74,40,5.75,scattered clouds,2022-11-27 08:09:00
597,Dzaoudzi,YT,-12.7887,45.2699,85.89,62,0,11.5,clear sky,2022-11-27 08:09:01
598,Namakkal,IN,11.2213,78.1652,83.55,64,69,2.51,broken clouds,2022-11-27 08:09:01
599,Galle,LK,6.0367,80.217,82.76,69,38,8.14,scattered clouds,2022-11-27 08:09:02
600,Benghazi,LY,32.1167,20.0667,62.44,72,62,21.94,moderate rain,2022-11-27 08:08:32
601,Isangel,VU,-19.55,169.2667,77.49,79,4,2.82,clear sky,2022-11-27 08:09:02
602,Palana,RU,59.1167,159.9667,27.9,77,100,6.6,overcast clouds,2022-11-27 08:09:03
603,Mato Verde,BR,-15.3972,-42.8664,67.26,96,100,1.77,overcast clouds,2022-11-27 08:09:04
604,Tual,ID,-5.6667,132.75,85.35,70,100,8.75,overcast clouds,2022-11-27 08:09:04
605,Formosa,AR,-26.1775,-58.1781,67.98,94,0,5.75,clear sky,2022-11-27 08:09:05
606,Lafia,NG,8.4833,8.5167,81.54,47,100,3.49,overcast clouds,2022-11-27 08:09:05
607,Nkhata Bay,MW,-11.6066,34.2907,83.66,51,6,9.69,clear sky,2022-11-27 08:09:06
608,Marzuq,YE,14.4,46.4667,75.65,30,22,8.14,few clouds,2022-11-27 08:09:06
609,Foshan,CN,23.0268,113.1315,74.95,81,97,11.3,overcast clouds,2022-11-27 08:09:07
610,Ode,NG,7.7899,5.7117,78.19,62,95,3.09,overcast clouds,2022-11-27 08:09:07
611,Buraydah,SA,26.326,43.975,77.77,28,84,3.31,broken clouds,2022-11-27 08:08:42
612,Caceres,ES,39.522,-6.3748,45.88,58,100,1.41,overcast clouds,2022-11-27 08:09:08
613,Moerai,PF,-22.4333,-151.3333,73.92,81,74,17.92,broken clouds,2022-11-27 08:09:08
614,Lethem,GY,3.3803,-59.7968,74.19,91,100,4.79,heavy intensity rain,2022-11-27 08:09:09
615,Bambanglipuro,ID,-7.95,110.2833,80.24,81,100,8.14,overcast clouds,2022-11-27 08:09:10
616,Rudnyy,KZ,52.9594,63.1206,-1.97,78,100,8.9,overcast clouds,2022-11-27 08:09:10
617,Panacan,PH,9.2463,118.4082,83.68,75,76,9.48,broken clouds,2022-11-27 08:09:11
618,Kuusamo,FI,65.9667,29.1833,21.24,93,75,6.91,broken clouds,2022-11-27 08:09:11
619,Tabon,PH,9.2388,117.9946,84.94,69,32,2.75,scattered clouds,2022-11-27 08:09:12
620,Santa Ana,US,33.7456,-117.8678,58.26,72,0,5.75,clear sky,2022-11-27 08:09:13
621,Aksarka,RU,66.5606,67.7975,2.5,89,97,10.09,overcast clouds,2022-11-27 08:09:13
622,Kijang,KR,35.2442,129.2139,58.21,48,100,2.51,overcast clouds,2022-11-27 08:09:14
623,Byron Bay,AU,-28.65,153.6167,71.71,87,100,10.07,overcast clouds,2022-11-27 08:09:15
624,Fuyang,CN,32.9,115.8167,69.44,58,81,4.47,broken clouds,2022-11-27 08:09:15
625,Keti Bandar,PK,24.1447,67.4497,82.04,44,0,9.31,clear sky,2022-11-27 08:09:16
626,Vesele,UA,47.0148,34.915,42.28,86,100,3.31,overcast clouds,2022-11-27 08:09:16
627,Kashan,IR,33.9831,51.4364,66.69,31,0,4.88,clear sky,2022-11-27 08:09:16
628,Waipawa,NZ,-41.4122,175.5153,52.38,96,100,2.68,overcast clouds,2022-11-27 08:09:17
629,Tonstad,NO,58.6626,6.7169,49.21,97,100,21.54,overcast clouds,2022-11-27 08:09:17
630,Gigmoto,PH,13.7796,124.39,82.24,69,60,10.25,broken clouds,2022-11-27 08:09:18
631,Ishigaki,JP,24.3448,124.1572,77.58,75,96,16.98,overcast clouds,2022-11-27 08:09:18
632,Broome,US,42.2506,-75.833,43.68,53,0,8.05,clear sky,2022-11-27 08:08:22
633,Tarazona,ES,41.9,-1.7333,31.82,45,100,1.79,overcast clouds,2022-11-27 08:09:19
634,Ust-Tsilma,RU,65.441,52.1498,-0.17,98,22,3.58,few clouds,2022-11-27 08:09:20
635,George,ZA,-33.963,22.4617,69.35,56,40,3.44,scattered clouds,2022-11-27 08:09:20
636,Preobrazheniye,RU,42.9019,133.9064,31.44,47,100,10.09,overcast clouds,2022-11-27 08:10:21
637,Brandfort,ZA,-28.7001,26.4597,70.7,51,0,9.66,clear sky,2022-11-27 08:10:22
638,Havoysund,NO,70.9963,24.6622,35.83,81,98,12.01,overcast clouds,2022-11-27 08:10:22
639,Baherden,TM,38.4362,57.4316,67.98,26,0,8.84,clear sky,2022-11-27 08:10:23
640,Tumaco,CO,1.7986,-78.8156,75.0,85,100,7.65,overcast clouds,2022-11-27 08:10:23
641,Port-Gentil,GA,-0.7193,8.7815,78.76,83,20,2.3,few clouds,2022-11-27 08:10:24
642,Maltahohe,NA,-24.8333,16.9833,80.19,14,0,17.92,clear sky,2022-11-27 08:10:24
643,La Rioja,ES,42.25,-2.5,24.58,32,100,5.97,overcast clouds,2022-11-27 08:10:25
644,Sergeyevka,KZ,53.88,67.4158,-0.89,78,0,5.12,clear sky,2022-11-27 08:10:25
645,Bandrele,YT,-12.9067,45.1914,85.75,62,0,11.5,clear sky,2022-11-27 08:10:26
646,Itamaraca,BR,-7.7478,-34.8256,78.85,81,100,7.4,overcast clouds,2022-11-27 08:10:26
647,Ler,SS,8.3018,30.1418,90.84,19,100,6.15,overcast clouds,2022-11-27 08:10:27
648,Pedasi,PA,7.5333,-80.0333,76.06,84,90,3.98,light rain,2022-11-27 08:10:27
649,Kimbe,PG,-5.5502,150.1429,79.56,85,100,1.74,overcast clouds,2022-11-27 08:10:28
650,Ranong,TH,9.9658,98.6348,82.08,78,100,4.94,overcast clouds,2022-11-27 08:10:28
651,Rongcheng,CN,30.634,117.8517,63.7,89,100,3.0,overcast clouds,2022-11-27 08:10:29
652,Mandan,US,46.8267,-100.8896,28.96,88,0,8.05,clear sky,2022-11-27 08:06:09
653,Lander,US,42.833,-108.7307,30.79,80,0,4.61,clear sky,2022-11-27 08:10:30
654,Narsaq,GL,60.9167,-46.05,29.21,96,100,1.68,light snow,2022-11-27 08:10:30
655,Lebyazhye,RU,55.2689,66.4947,3.07,61,0,7.7,clear sky,2022-11-27 08:10:31
656,Takahagi,JP,36.7167,140.7167,52.09,55,0,10.74,clear sky,2022-11-27 08:10:31
657,Edgewater,US,28.9889,-80.9023,73.54,93,100,7.52,overcast clouds,2022-11-27 08:10:32
658,Atasu,KZ,48.6814,71.6433,2.59,74,7,11.97,clear sky,2022-11-27 08:10:32
659,Ende,ID,-8.8432,121.6623,81.27,84,100,5.64,overcast clouds,2022-11-27 08:10:33
660,Beringovskiy,RU,63.05,179.3167,3.34,100,92,5.37,overcast clouds,2022-11-27 08:10:33
